,City,Cloudiness,Country,Date,Humidity,Lat,Lng,Max Temp,Wind Speed
0,Rikitea,19,PF,1559705229,79,-23.12,-134.97,75.93,2.37
1,Bredasdorp,13,ZA,1559705075,62,-34.53,20.04,60.01,23.04
2,Terrace,75,CA,1559705297,81,54.52,-128.61,50.0,14.99
3,Castro,100,CL,1559705077,87,-42.48,-73.76,50.0,17.22
4,Mataura,44,NZ,1559705231,69,-46.19,168.86,45.69,7.38
5,Ushuaia,90,AR,1559705234,86,-54.81,-68.31,41.0,5.82
6,Ouadda,95,CF,1559705298,79,8.07,22.4,69.09,3.2
7,Cidreira,0,BR,1559705239,75,-30.17,-50.22,60.63,6.26
8,Aksu,90,KZ,1559705298,67,52.04,76.93,62.6,6.71
9,Meridian,1,US,1559705209,69,32.36,-88.7,82.4,3.36
10,Sedro-Woolley,1,US,1559705298,55,48.5,-122.23,64.0,3.36
11,Yellowknife,75,CA,1559704998,93,62.45,-114.38,48.2,4.7
12,Arica,90,CL,1559705298,68,-18.48,-70.32,64.4,2.24
13,San Patricio,0,PY,1559705050,92,-26.98,-56.83,52.89,5.17
14,Urdoma,96,RU,1559705299,87,61.74,48.55,50.37,7.09
15,Saskylakh,0,RU,1559705231,44,71.97,114.09,51.27,14.97
16,Matara,2,PE,1559705299,87,-13.74,-72.9,32.01,2.24
17,Cherskiy,0,RU,1559705299,38,68.75,161.3,42.99,16.35
18,Lebu,76,ET,1559705233,82,8.96,38.73,55.4,2.24
19,Busselton,84,AU,1559705234,24,-33.64,115.35,66.99,34.0
20,Alyangula,100,AU,1559705299,56,-13.85,136.42,69.8,10.29
21,Hithadhoo,100,MV,1559705299,73,-0.6,73.08,85.11,11.95
22,Dvinskoy,100,RU,1559705300,95,62.16,45.12,53.07,5.35
23,Hermanus,60,ZA,1559705236,70,-34.42,19.24,60.01,18.99
24,Kamenka,0,RU,1559705300,57,53.19,44.05,59.0,2.08
25,Ixtapa,90,MX,1559705300,78,20.71,-105.21,75.2,2.24
26,Bambanglipuro,100,ID,1559705300,77,-7.95,110.28,81.33,8.39
27,Semey,75,KZ,1559705300,82,50.41,80.25,64.4,4.47
28,Punta Arenas,75,CL,1559705064,93,-53.16,-70.91,39.2,4.7
29,Guerrero Negro,0,MX,1559705246,87,27.97,-114.04,65.49,12.19
30,Butaritari,83,KI,1559705246,79,3.07,172.79,84.93,14.58
31,Zhangjiakou,100,CN,1559705301,17,40.77,114.88,67.11,6.76
32,Kodiak,40,US,1559705301,60,39.95,-94.76,80.6,6.93
33,Yar-Sale,100,RU,1559705301,88,66.83,70.83,34.35,16.11
34,Half Moon Bay,20,US,1559705301,72,37.46,-122.43,75.99,17.22
35,Abalak,82,NE,1559705302,38,15.46,6.28,89.61,14.79
36,Vardo,1,US,1559705302,60,39.62,-77.74,69.01,5.82
37,Omsukchan,99,RU,1559705302,69,62.53,155.8,49.65,2.71
38,Seymchan,66,RU,1559705302,57,62.93,152.39,53.43,5.14
39,Sobolevo,0,RU,1559705302,93,54.43,31.9,58.11,8.01
40,Sao Filipe,0,CV,1559705302,85,14.9,-24.5,74.31,12.71
41,Quang Ngai,76,VN,1559705302,32,15.12,108.8,97.17,3.02
42,Pitimbu,0,BR,1559705303,78,-7.47,-34.81,75.2,5.82
43,Zhangye,34,CN,1559705303,25,38.94,100.46,71.79,5.75
44,Laguna,0,MX,1559705303,47,27.52,-110.01,80.25,4.94
45,New Norfolk,75,AU,1559705231,50,-42.78,147.06,53.6,26.4
46,Te Anau,51,NZ,1559705303,71,-45.41,167.72,38.67,2.28
47,Port Elizabeth,1,US,1559705239,87,39.31,-74.98,66.99,7.65
48,Esperance,75,TT,1559705056,88,10.24,-61.45,82.0,6.93
49,Bluff,100,AU,1559705236,24,-23.58,149.07,67.65,11.99
50,Port Lincoln,3,AU,1559705304,54,-34.72,135.86,56.67,4.5
51,Atuona,42,PF,1559705235,77,-9.8,-139.03,82.59,19.1
52,Abha,0,SA,1559705304,72,18.22,42.5,64.4,5.79
53,Asyut,0,EG,1559705304,38,27.18,31.19,77.0,16.11
54,Clyde River,1,CA,1559705304,63,70.47,-68.59,33.8,5.82
55,Amapa,40,HN,1559705304,83,15.09,-87.97,82.4,8.05
56,Praia,0,BR,1559705304,77,-20.25,-43.81,59.0,5.82
57,Tiksi,0,RU,1559705305,75,71.64,128.87,34.89,13.8
58,Cape Town,40,ZA,1559705073,54,-33.93,18.42,59.0,12.75
59,Alizai,40,PK,1559705305,39,33.94,71.55,84.2,16.11
60,Necochea,100,AR,1559705305,77,-38.55,-58.74,54.0,21.0
61,Kaitangata,23,NZ,1559705242,59,-46.28,169.85,46.0,8.01
62,Salalah,40,OM,1559705257,79,17.01,54.1,86.0,6.93
63,Lishui,46,CN,1559705305,47,28.45,119.91,88.89,5.03
64,Yamada,75,JP,1559705306,48,36.58,137.08,84.99,4.7
65,Kapaa,90,US,1559704950,78,22.08,-159.32,84.2,16.11
66,Santa Marta,75,CO,1559705306,70,11.24,-74.21,86.0,6.93
67,Santa Vitoria do Palmar,0,BR,1559705306,73,-33.52,-53.37,54.51,6.26
68,Kargopol,60,RU,1559705306,73,61.51,38.95,63.15,8.61
69,Toyota,75,JP,1559705307,78,35.15,137.3,82.0,4.7
70,Drovyanaya,75,RU,1559705307,87,51.58,113.05,48.2,4.47
71,Upernavik,96,GL,1559705052,89,72.79,-56.15,33.81,0.96
72,Bara,91,NG,1559705307,55,10.41,10.6,84.57,8.3
73,Poum,75,MK,1559705307,87,41.28,20.71,55.4,1.12
74,Sakaiminato,20,JP,1559705307,42,35.55,133.23,84.2,14.99
75,Torbay,90,CA,1559705307,100,47.66,-52.73,53.6,10.29
76,Qaanaaq,98,GL,1559705082,91,77.48,-69.36,22.65,2.89
77,Puerto Ayora,35,EC,1559705230,91,-0.74,-90.35,73.99,10.51
78,Shentala,0,RU,1559705308,72,54.44,51.46,52.53,6.55
79,Aginskoye,99,RU,1559705308,73,51.11,114.54,48.99,3.0
80,Matagami,100,NG,1559705308,95,9.67,8.4,72.33,6.13
81,Dingle,62,PH,1559705233,40,11.0,122.67,94.47,9.73
82,Ust-Tsilma,99,RU,1559705309,57,65.44,52.15,46.95,8.9
83,Chokurdakh,90,RU,1559705232,54,70.62,147.9,40.29,7.05
84,Almenara,1,BR,1559705309,94,-16.17,-40.69,64.95,0.38
85,Tecoanapa,90,MX,1559705309,83,16.99,-99.26,82.4,2.24
86,Taoudenni,36,ML,1559705244,7,22.68,-3.98,90.69,5.68
87,Fez,75,MA,1559705309,82,34.03,-5.02,60.8,14.99
88,Magadan,87,RU,1559705309,80,59.56,150.8,47.31,4.36
89,Marzuq,74,YE,1559705240,16,14.4,46.47,79.71,4.43
90,Yanaul,0,RU,1559705309,53,56.27,54.93,50.01,11.48
91,Constitucion,75,MX,1559705310,49,23.99,-104.67,71.01,2.24
92,Marsh Harbour,53,BS,1559705310,81,26.54,-77.06,79.89,10.4
93,Ribeira Grande,3,PT,1559705230,67,38.52,-28.7,62.25,9.69
94,Orje,100,NO,1559705310,93,59.48,11.66,48.0,3.36
95,Pudozh,22,RU,1559705310,90,61.81,36.54,57.57,6.38
96,Ramsar,0,IR,1559705311,78,36.92,50.64,73.4,1.72
97,Billings,20,US,1559705196,40,45.79,-108.5,73.4,11.41
98,Brae,99,GB,1559705311,93,60.4,-1.35,44.6,2.24
99,Sexsmith,75,CA,1559705311,44,55.35,-118.78,57.2,5.82
100,Nikolskoye,0,RU,1559705242,63,59.7,30.79,69.01,6.71
101,Tanza,40,PH,1559705311,59,14.39,120.85,93.2,5.41
102,Mandalgovi,100,MN,1559705311,23,45.76,106.27,63.51,19.15
103,Never,33,RU,1559705312,36,53.98,124.16,73.95,7.16
104,Trairi,38,BR,1559705312,97,-3.28,-39.27,72.15,3.51
105,Urucara,0,BR,1559705312,97,-2.54,-57.76,74.49,1.07
106,Ponta do Sol,0,BR,1559705256,93,-20.63,-46.0,52.17,4.74
107,Rong Kwang,20,TH,1559705165,70,18.34,100.32,87.8,4.7
108,Navirai,0,BR,1559705312,95,-23.07,-54.19,59.01,5.35
109,Griffith,0,AU,1559705313,54,-34.29,146.06,54.0,9.17
110,Berlevag,75,NO,1559705125,80,70.86,29.09,39.2,10.29
111,Kinkala,0,CG,1559705313,77,-4.35,14.75,66.39,4.63
112,Kavaratti,40,IN,1559705184,74,10.57,72.64,86.0,5.82
113,Carnarvon,19,ZA,1559705148,77,-30.97,22.13,49.11,23.44
114,Pevek,38,RU,1559705313,89,69.7,170.27,31.47,8.72
115,Jamestown,0,AU,1559705243,45,-33.21,138.6,55.23,9.13
116,Waipawa,100,NZ,1559705313,88,-39.94,176.59,51.01,5.46
117,Patancheru,20,IN,1559705313,66,17.53,78.27,87.8,6.93
118,Ariquemes,97,BR,1559705314,86,-9.91,-63.03,71.61,3.18
119,San-Pedro,71,CI,1559705314,96,4.75,-6.64,71.61,2.35
120,Otane,100,NZ,1559705314,88,-39.89,176.62,51.01,5.46
121,Calbuco,20,CL,1559705314,93,-41.77,-73.13,48.2,10.29
122,Vaini,40,IN,1559705229,78,15.34,74.49,77.0,12.75
123,Lorengau,100,PG,1559705247,85,-2.02,147.27,82.59,5.44
124,Hilo,20,US,1559705300,65,19.71,-155.08,80.6,8.05
125,Doha,0,QA,1559705315,52,25.29,51.53,91.4,6.93
126,Arraial do Cabo,19,BR,1559705230,72,-22.97,-42.02,70.71,15.01
127,Dudinka,0,RU,1559705256,88,69.41,86.18,42.8,11.18
128,Bellevue,1,US,1559705216,37,47.61,-122.19,69.8,5.82
129,Phek,7,IN,1559705317,44,25.7,94.46,90.33,1.54
130,Hwange,0,ZW,1559705317,44,-18.35,26.5,53.97,3.91
131,Whitefish,1,US,1559705318,25,48.41,-114.33,68.0,10.29
132,Norman Wells,90,CA,1559705318,93,65.28,-126.83,39.2,3.36
133,Skibbereen,75,IE,1559705318,93,51.55,-9.27,46.4,11.41
134,San Joaquin,100,PH,1559705318,47,10.59,122.14,95.91,1.54
135,Mwinilunga,0,ZM,1559705319,85,-11.73,24.43,48.93,4.94
136,Uch,0,FR,1559705319,93,45.32,-0.93,61.0,2.24
137,Totness,20,US,1559705319,88,33.74,-80.8,73.4,7.56
138,Mahebourg,75,MU,1559705246,88,-20.41,57.7,71.6,18.34
139,Sechura,17,PE,1559705064,87,-5.56,-80.82,66.75,12.33
140,Tuktoyaktuk,40,CA,1559705319,70,69.44,-133.03,42.8,13.87
141,Nanortalik,18,GL,1559705319,85,60.14,-45.24,37.41,0.47
142,Port Blair,39,IN,1559705183,77,11.67,92.75,85.83,10.56
143,Luwuk,99,ID,1559705100,95,-0.95,122.79,69.09,3.47
144,Sheltozero,7,RU,1559705320,78,61.37,35.37,58.65,11.5
145,Katsuura,20,JP,1559705320,65,33.93,134.5,80.6,10.29
146,Avarua,61,CK,1559705243,83,-21.21,-159.78,73.4,9.17
147,College,1,US,1559705309,25,64.86,-147.8,71.6,3.85
148,Bethel,90,US,1559705233,43,60.79,-161.76,71.6,10.29
149,Zhigansk,100,RU,1559705320,68,66.77,123.37,56.31,2.28
150,Chuy,3,UY,1559705320,64,-33.69,-53.46,59.01,11.18
151,Ulaangom,0,MN,1559705321,33,49.98,92.07,63.69,6.82
152,Khatanga,46,RU,1559705254,62,71.98,102.47,51.99,3.67
153,Isla Mujeres,75,MX,1559705321,78,21.23,-86.73,82.4,9.17
154,Bambous Virieux,75,MU,1559705235,88,-20.34,57.76,71.6,18.34
155,Ingham,100,AU,1559705321,32,-18.65,146.16,68.01,5.64
156,Kodinsk,0,RU,1559705321,29,58.6,99.18,70.89,5.91
157,Lagoa,0,PT,1559705238,82,37.14,-8.45,61.0,8.05
158,Georgetown,40,GY,1559705094,88,6.8,-58.16,78.8,4.7
159,Natal,0,BR,1559705322,78,-5.81,-35.21,77.0,8.05
160,East London,0,ZA,1559705238,17,-33.02,27.91,68.01,11.9
161,Kjollefjord,75,NO,1559705322,80,70.95,27.35,39.2,10.29
162,Altamont,1,CA,1559705322,63,49.4,-98.5,66.2,18.34
163,Aykhal,90,RU,1559705322,93,65.95,111.51,48.2,4.47
164,Lompoc,90,US,1559705251,87,34.64,-120.46,64.4,9.17
165,Fortuna,0,ES,1559705255,88,38.18,-1.13,66.0,3.36
166,Ploemeur,0,FR,1559705323,87,47.73,-3.43,54.0,3.11
167,Vagur,97,FO,1559705323,88,61.47,-6.81,46.05,15.5
168,Iqaluit,75,CA,1559705323,59,63.75,-68.52,35.6,2.24
169,Mar del Plata,67,AR,1559705243,57,-46.43,-67.52,51.81,25.75
170,Albany,90,US,1559705058,76,42.65,-73.75,55.99,1.99
171,Srandakan,100,ID,1559705323,77,-7.94,110.25,81.33,8.39
172,Canas,1,BR,1559705323,93,-22.7,-45.05,51.8,1.12
173,Bathsheba,40,BB,1559704945,74,13.22,-59.52,82.4,20.8
174,Venado Tuerto,44,AR,1559705324,54,-33.75,-61.97,55.99,14.0
175,Port Arthur,40,US,1559705153,100,29.9,-93.93,77.0,8.43
176,Saldanha,0,PT,1559705324,89,41.42,-6.55,46.41,5.82
177,Hofn,100,IS,1559705324,85,64.25,-15.21,29.31,23.04
178,Broken Hill,0,AU,1559705324,50,-31.97,141.45,53.6,17.22
179,Kailua,75,US,1559705325,74,21.39,-157.74,87.01,13.87
180,Dikson,52,RU,1559705066,93,73.51,80.55,32.37,7.54
181,Nara,75,JP,1559705325,65,34.68,135.8,86.0,3.36
182,Dunedin,1,NZ,1559704960,54,-45.87,170.5,48.0,17.0
183,Loano,40,IT,1559705325,93,44.13,8.26,64.4,5.95
184,Kholbon,48,RU,1559705325,67,51.9,116.25,55.59,14.41
185,Codrington,40,AU,1559705326,45,-28.95,153.24,68.0,11.41
186,Airai,7,TL,1559705250,48,-8.93,125.41,85.65,6.98
187,Atasu,98,KZ,1559705326,56,48.68,71.64,66.21,12.71
188,Pacific Grove,1,US,1559705326,72,36.62,-121.92,79.0,3.36
189,Ternate,40,PH,1559705326,59,14.29,120.72,93.2,5.41
190,Huamuxtitlan,100,MX,1559705326,83,17.82,-98.57,72.51,3.29
191,Barrow,100,AR,1559705231,67,-38.31,-60.23,58.47,20.62
192,Copiapo,0,CL,1559705087,61,-27.37,-70.33,55.95,1.83
193,Luangwa,0,MZ,1559705327,82,-15.62,30.4,54.69,0.6
194,Cerro Largo,0,BR,1559705327,86,-28.15,-54.74,52.17,4.29
195,Saint George,75,GR,1559705209,93,39.45,22.34,60.8,3.22
196,Labuhan,18,ID,1559705327,51,-2.54,115.51,92.31,1.48
197,Klaksvik,98,FO,1559705243,87,62.23,-6.59,42.8,8.05
198,Cabo San Lucas,40,MX,1559705175,73,22.89,-109.91,78.01,8.05
199,Kendari,78,ID,1559705328,91,-3.99,122.52,80.25,4.25
200,Loknya,0,RU,1559705328,94,54.21,39.24,53.01,3.8
201,Kruisfontein,16,ZA,1559705107,72,-34.0,24.73,57.75,8.81
202,Muisne,96,EC,1559705328,86,0.61,-80.02,78.27,15.68
203,Tucuman,0,PE,1559705329,44,-17.17,-70.89,56.67,1.28
204,Provideniya,20,RU,1559705329,86,64.42,-173.23,41.0,8.95
205,Kahului,75,US,1559705329,61,20.89,-156.47,82.99,16.11
206,Kamsack,1,CA,1559705330,36,51.56,-101.9,62.6,6.93
207,Akdepe,0,TM,1559705330,37,42.05,59.39,82.4,6.93
208,Eyl,100,SO,1559705330,66,7.98,49.82,79.89,21.94
209,Hasaki,75,JP,1559705239,69,35.73,140.83,79.0,8.05
210,Biak,99,ID,1559705330,95,-0.91,122.88,69.09,3.47
211,Sorland,75,NO,1559705330,100,67.67,12.69,48.2,5.82
212,Ikwiriri,0,TZ,1559705331,80,-7.96,38.99,68.37,3.56
213,Tasiilaq,1,GL,1559705331,59,65.61,-37.64,37.4,9.17
214,Dhidhdhoo,100,MV,1559705331,76,6.88,73.1,83.49,15.1
215,Kieta,65,PG,1559704951,69,-6.22,155.63,85.47,9.78
216,Fare,13,PF,1559705331,71,-16.7,-151.02,80.97,12.21
217,Sanghar,6,PK,1559705332,38,28.18,68.31,91.4,10.69
218,Den Helder,90,NL,1559705332,100,52.96,4.76,61.0,18.34
219,Aklavik,75,CA,1559705332,38,68.22,-135.01,59.0,8.05
220,Hohhot,0,CN,1559705332,13,40.81,111.65,78.8,6.71
221,Yulara,0,AU,1559705332,41,-25.24,130.99,57.2,16.11
222,Slave Lake,40,CA,1559705332,67,55.28,-114.77,57.2,8.05
223,Bolshoye Selo,0,RU,1559705332,73,57.72,38.93,57.03,6.82
224,Santa Cruz del Sur,11,CU,1559705333,91,20.71,-78.0,75.93,6.71
225,Araouane,0,ML,1559705174,9,18.9,-3.53,87.99,7.27
226,Santa Isabel,75,CO,1559705333,88,4.71,-75.1,75.2,4.7
227,Saint-Philippe,1,CA,1559705249,81,45.36,-73.48,54.0,13.87
228,Muros,40,ES,1559705333,93,42.77,-9.06,55.99,2.24
229,Kapuskasing,75,CA,1559705334,57,49.42,-82.43,51.8,9.17
230,Oranjemund,91,ZA,1559705334,94,-28.55,16.43,58.11,6.44
231,Ayan,1,TR,1559705254,87,40.67,33.6,52.89,2.51
232,Lazarev,55,RU,1559705334,87,52.23,141.51,40.47,12.57
233,Dirba,97,NG,1559705334,69,10.1,13.23,79.35,6.93
234,Fuerte Olimpo,0,BR,1559705334,83,-21.04,-57.87,59.01,2.95
235,Padang,20,ID,1559705229,70,-0.92,100.36,87.8,1.12
236,Dronten,75,NL,1559705334,93,52.52,5.72,62.01,5.82
237,Imbituba,0,BR,1559705128,87,-28.24,-48.67,59.0,4.7
238,Longyearbyen,75,NO,1559705229,74,78.22,15.63,35.6,6.93
239,Kvarkeno,0,RU,1559705335,51,52.08,59.73,51.09,19.62
240,Port-Gentil,97,GA,1559705335,83,-0.72,8.78,75.93,11.88
241,Tateyama,75,JP,1559705335,48,36.66,137.31,84.99,4.7
242,Sabang,31,PH,1559705336,69,13.72,123.58,87.27,8.66
243,Hami,0,CN,1559705336,13,42.84,93.51,80.97,4.09
244,Tigil,100,RU,1559705336,48,57.8,158.67,63.51,10.09
245,Bonthe,100,SL,1559705336,83,7.53,-12.5,79.53,6.22
246,Ipixuna,20,BR,1559705336,88,-1.76,-48.8,77.0,6.93
247,Pangkalanbuun,15,ID,1559705336,59,-2.68,111.62,87.81,4.79
248,Saint Anthony,1,US,1559705111,43,43.97,-111.68,71.6,9.17
249,Ola,41,RU,1559705337,75,59.58,151.3,47.85,1.57
250,Ewa Beach,75,US,1559705337,69,21.32,-158.01,87.01,9.17
251,Santa Rosa del Sur,100,CO,1559705337,94,7.96,-74.05,75.21,1.21
252,Coslada,20,ES,1559705041,45,40.42,-3.56,63.0,13.87
253,Godda,3,IN,1559705337,59,24.83,87.21,90.33,10.94
254,Inta,4,RU,1559705338,63,66.04,60.13,39.93,4.54
255,San Policarpo,1,PH,1559705338,67,12.18,125.51,86.55,8.52
256,Gura Sutii,90,RO,1559705148,100,44.75,25.52,63.0,6.93
257,Bad Sachsa,29,DE,1559705338,78,51.6,10.55,70.0,1.01
258,Pulsano,90,IT,1559705338,100,40.38,17.36,66.2,2.24
259,Vestmannaeyjar,66,IS,1559705338,62,63.44,-20.27,46.41,18.19
260,Hobart,75,AU,1559705255,50,-42.88,147.33,53.6,26.4
261,Thompson,90,CA,1559705242,81,55.74,-97.86,48.2,2.24
262,Praia da Vitoria,40,PT,1559705338,72,38.73,-27.07,60.8,8.5
263,Mount Isa,100,AU,1559705339,29,-20.73,139.49,62.6,17.22
264,Gwadar,100,PK,1559705339,86,25.12,62.33,85.29,8.14
265,Ostrovnoy,100,RU,1559705339,85,68.05,39.51,48.57,12.28
266,Carutapera,96,BR,1559705339,90,-1.2,-46.02,76.83,4.07
267,Sampit,1,ID,1559705339,58,-2.54,112.95,86.37,4.94
268,Puerto Colombia,40,CO,1559705340,83,10.99,-74.96,84.2,4.7
269,Lufilufi,75,WS,1559705340,79,-13.87,-171.6,86.0,10.29
270,Lasa,0,CY,1559705340,72,34.92,32.53,69.8,3.36
271,Samarai,98,PG,1559705255,94,-10.62,150.67,76.65,6.26
272,Sitka,2,US,1559705097,70,37.17,-99.65,69.01,11.01
273,Kolyshley,0,RU,1559705340,57,52.7,44.54,59.0,3.87
274,Juybar,0,IR,1559705340,94,36.64,52.91,71.6,2.24
275,Dawlatabad,0,AF,1559705340,29,36.41,64.91,77.91,8.01
276,Avera,1,US,1559705341,78,33.19,-82.53,77.0,5.82
277,Fukue,75,JP,1559705341,78,35.03,136.69,82.0,4.7
278,Port Macquarie,90,AU,1559705247,71,-31.43,152.91,64.0,12.75
279,Champerico,75,MX,1559705341,66,16.38,-93.6,84.2,3.09
280,Shizunai,100,JP,1559705341,88,42.33,142.37,62.25,10.6
281,Tatarsk,100,RU,1559705341,75,55.22,75.96,60.81,15.9
282,Roald,51,NO,1559705342,93,62.58,6.12,48.99,2.24
283,Lavrentiya,0,RU,1559705235,39,65.58,-170.99,62.07,5.97
284,Haines Junction,78,CA,1559705342,43,60.75,-137.51,53.79,4.79
285,Thinadhoo,45,MV,1559705342,71,0.53,72.93,85.47,10.92
286,Locri,5,IT,1559705342,82,38.24,16.26,68.0,4.7
287,Cockburn Town,1,TC,1559705342,81,21.46,-71.14,81.33,11.97
288,Maxixe,20,MZ,1559705124,72,-23.86,35.35,66.2,1.95
289,Port Alfred,3,ZA,1559705238,53,-33.59,26.89,69.01,11.99
290,Serebryansk,87,KZ,1559705343,60,49.68,83.3,64.59,9.04
291,Gamba,0,CN,1559705343,31,28.28,88.52,45.87,6.58
292,Yeppoon,0,AU,1559705343,28,-23.13,150.74,69.8,5.82
293,Baykit,1,RU,1559705343,30,61.68,96.39,68.19,4.38
294,Bintulu,75,MY,1559705343,74,3.17,113.03,87.8,3.36
295,Pobe,100,BJ,1559705343,89,6.98,2.66,76.47,4.36
296,Tual,100,ID,1559705073,83,-5.67,132.75,80.97,28.3
297,Santa Fe,26,AR,1559705344,80,-31.62,-60.7,62.01,8.01
298,Shache,43,CN,1559705344,69,38.42,77.24,66.99,13.15
299,Srisailam,85,IN,1559705344,48,16.07,78.87,91.77,12.01
300,Kitui,45,KE,1559705344,95,-1.37,38.02,60.45,2.57
301,Zyryanka,99,RU,1559705345,32,65.73,150.89,52.53,9.66
302,Plettenberg Bay,37,ZA,1559705345,81,-34.05,23.37,57.57,6.69
303,Touros,0,BR,1559705345,94,-5.2,-35.46,75.2,4.7
304,Boa Vista,90,BR,1559705345,88,2.82,-60.67,77.0,4.7
305,Vestmanna,99,FO,1559705345,87,62.16,-7.17,42.8,8.05
306,Finnsnes,40,NO,1559705345,87,69.23,17.98,48.2,8.05
307,Rocha,59,UY,1559705346,85,-34.48,-54.34,45.15,6.4
308,York,2,GB,1559705346,93,53.96,-1.08,52.0,6.93
309,Merauke,100,ID,1559705346,83,-8.49,140.4,80.43,22.75
310,Lodwar,82,KE,1559705346,53,3.12,35.6,82.59,2.44
311,Souillac,0,FR,1559705346,93,45.6,-0.6,61.0,4.41
312,Altay,50,CN,1559705347,55,47.83,88.13,55.41,5.59
313,Diapaga,77,BF,1559705347,47,12.07,1.79,87.81,8.28
314,Chumikan,7,RU,1559705058,67,54.72,135.31,52.89,7.2
315,Coihaique,90,CL,1559705347,100,-45.58,-72.07,42.8,4.7
316,Bagdarin,95,RU,1559705347,78,54.44,113.59,55.23,11.74
317,Pasni,99,PK,1559705347,41,25.26,63.48,92.67,8.03
318,Namtsy,20,RU,1559705348,27,62.72,129.66,75.2,4.47
319,Cap-aux-Meules,20,CA,1559705348,81,47.38,-61.86,48.2,10.29
320,Salamanca,0,ES,1559705217,76,40.97,-5.66,48.2,13.87
321,Sile,1,US,1559705348,71,35.56,-106.37,68.0,8.08
322,Boda,75,BD,1559705348,70,26.2,88.56,84.2,9.17
323,Marsaxlokk,0,MT,1559705349,72,35.84,14.54,66.2,5.82
324,Vung Tau,100,VN,1559705349,67,10.35,107.08,87.99,7.54
325,Tura,5,IN,1559705349,66,25.52,90.21,85.83,5.26
326,Dondo,0,MZ,1559705349,93,-19.62,34.74,66.2,1.12
327,Okato,100,NZ,1559705349,94,-39.19,173.88,57.99,17.25
328,Hailar,7,CN,1559705123,46,49.2,119.7,60.45,16.67
329,Awjilah,0,LY,1559705349,43,29.14,21.3,73.05,9.4
330,Zhanaozen,57,KZ,1559705350,42,43.35,52.85,79.71,16.69
331,Pavagada,100,IN,1559705350,55,14.1,77.28,83.13,11.56
332,Pauini,100,BR,1559705350,81,-7.71,-67.0,75.21,2.13
333,Chilia Veche,1,UA,1559705350,93,45.41,29.29,55.4,4.7
334,Talara,32,PE,1559705350,87,-4.58,-81.27,68.91,18.59
335,Bubaque,97,GW,1559705350,81,11.28,-15.83,79.89,15.21
336,Poronaysk,89,RU,1559705351,68,49.22,143.1,56.49,6.49
337,Naze,75,NG,1559705150,94,5.43,7.07,77.0,3.18
338,Oga,91,NG,1559705351,93,8.18,5.65,73.59,8.48
339,Batemans Bay,1,AU,1559705351,50,-35.71,150.18,60.01,3.0
340,Coahuayana,100,MX,1559705088,82,18.62,-100.35,76.83,3.98
341,San Pedro de Ycuamandiyu,0,PY,1559705351,96,-24.09,-57.08,55.77,4.32
342,Henties Bay,0,NA,1559705351,80,-22.12,14.28,57.57,11.77
343,Monywa,1,MM,1559705352,49,22.12,95.13,92.13,10.94
344,Gravdal,73,NO,1559705352,66,59.79,5.78,55.4,10.29
345,Havelock,1,US,1559705352,77,34.88,-76.9,77.0,4.7
346,Gorontalo,100,ID,1559705352,60,0.54,123.06,86.73,5.77
347,Vila Velha,40,BR,1559705352,74,-3.71,-38.6,82.4,11.41
348,Knysna,0,ZA,1559705352,48,-34.04,23.05,62.6,25.28
349,Moosomin,0,CA,1559705353,54,50.14,-101.67,59.55,4.59
350,Manaus,0,BR,1559705220,88,-3.13,-59.98,78.8,2.01
351,Belaya Gora,1,RU,1559705353,28,68.54,146.19,52.89,9.33
352,Formosa do Rio Preto,5,BR,1559705353,61,-11.04,-45.19,68.55,1.77
353,Puerto Escondido,75,MX,1559705353,78,15.86,-97.07,82.4,3.36
354,Beya,1,RU,1559705353,67,53.05,90.92,59.91,5.12
355,Acapulco,90,MX,1559705223,83,16.86,-99.88,82.4,2.24
356,San Lorenzo de El Escorial,20,ES,1559705353,45,40.59,-4.15,64.0,13.87
357,Cabedelo,0,BR,1559705354,78,-6.97,-34.84,75.2,5.82
358,Iracoubo,93,GF,1559705354,91,5.48,-53.21,76.83,4.94
359,Villavieja,75,CO,1559705354,61,3.22,-75.22,80.6,6.93
360,Belmonte,84,PT,1559705231,86,40.36,-7.35,50.0,6.76
361,Khuzdar,100,PK,1559705354,18,27.8,66.62,77.73,14.5
362,Arcachon,99,FR,1559705354,76,44.65,-1.18,59.0,3.36
363,Coquimbo,90,CL,1559705354,93,-29.95,-71.34,57.0,4.7
364,Tsybli,40,UA,1559705355,93,49.99,31.57,64.4,8.95
365,Beloha,0,MG,1559705239,80,-25.17,45.06,64.59,4.76
366,Fairbanks,1,US,1559705355,25,64.84,-147.72,71.6,3.85
367,Valparaiso,75,US,1559705355,60,41.47,-87.06,77.0,6.93
368,Port Hardy,90,CA,1559705355,81,50.7,-127.42,51.8,6.93
369,Dalby,0,AU,1559705355,48,-27.18,151.26,60.8,6.93
370,Tongliao,0,CN,1559705356,26,43.61,122.27,78.99,13.35
371,Saint-Pierre,54,FR,1559705252,93,48.95,4.24,64.4,3.36
372,Riyadh,0,SA,1559705212,13,24.63,46.72,78.8,6.93
373,Coolum Beach,57,AU,1559705356,57,-26.53,153.09,68.0,7.0
374,Itacare,0,BR,1559705356,100,-14.28,-39.0,73.4,4.7
375,Nome,90,US,1559705356,94,30.04,-94.42,77.0,3.36
376,Hajnowka,0,PL,1559705356,83,52.74,23.58,66.99,5.79
377,Hamilton,90,CA,1559705279,59,43.26,-79.87,68.0,12.75
378,Hashtgerd,0,IR,1559705357,23,35.96,50.69,78.8,4.7
379,Winneba,75,GH,1559705357,94,5.35,-0.62,77.0,6.93
380,Denizli,0,TR,1559705357,81,37.77,29.09,46.4,3.36
381,Tabas,0,IR,1559705357,25,33.6,56.92,77.0,4.7
382,Horsham,15,AU,1559705357,61,-36.71,142.2,53.43,11.01
383,Vanimo,47,PG,1559705358,70,-2.67,141.3,84.57,8.16
384,Lamar,1,US,1559705358,67,38.09,-102.62,62.6,19.51
385,Vao,0,EE,1559705358,82,59.1,26.19,61.35,6.55
386,Idritsa,0,RU,1559705358,94,56.33,28.9,58.47,4.94
387,Port Pirie,0,AU,1559705359,58,-33.18,138.01,53.6,12.75
388,Milkovo,90,BG,1559705359,93,41.53,24.68,66.0,4.7
389,Najran,0,SA,1559705169,33,17.54,44.22,75.2,4.7
390,Budogoshch,0,RU,1559705359,79,59.29,32.45,59.91,6.87
391,Havoysund,75,NO,1559705359,86,71.0,24.66,41.0,6.93
392,Qaqortoq,28,GL,1559705359,52,60.72,-46.03,46.4,5.82
393,San Jose,95,PH,1559705238,40,15.79,120.99,96.45,7.9
394,Jardim,0,BR,1559705360,92,-21.48,-56.15,57.21,3.58
395,Egvekinot,99,RU,1559705361,66,66.32,-179.17,50.37,7.96
396,Tilichiki,99,RU,1559705361,75,60.47,166.1,50.73,6.58
397,Hanting,63,CN,1559705361,40,30.92,118.55,94.11,5.86
398,Parana,0,BR,1559705361,84,-7.52,-72.89,72.87,1.28
399,Alofi,9,NU,1559705361,74,-19.06,-169.92,78.8,17.22
400,Gat,75,SN,1559705361,88,14.69,-16.54,71.6,5.82
401,Petropavlovsk-Kamchatskiy,75,RU,1559705362,81,53.05,158.65,51.8,11.18
402,Victoria Point,0,AU,1559705362,42,-27.58,153.3,72.0,8.05
403,Verkhnyaya Inta,4,RU,1559705362,63,65.99,60.32,39.93,4.54
404,Mehamn,75,NO,1559705249,80,71.03,27.85,39.2,10.29
405,Faanui,0,PF,1559705237,73,-16.48,-151.75,81.69,13.49
406,Dafeng,100,CN,1559705362,25,33.2,120.46,93.39,10.45
407,Tottori,20,JP,1559705246,69,35.5,134.23,82.4,6.93
408,Quelimane,40,MZ,1559705362,100,-17.88,36.89,66.2,4.7
409,Tazmalt,0,DZ,1559705362,88,36.39,4.4,64.4,9.17
410,Belousovka,40,KZ,1559705363,46,50.13,82.52,73.4,15.66
411,Loukisia,20,GR,1559705363,82,38.48,23.45,68.0,4.7
412,Juegang,100,CN,1559705363,46,32.31,121.18,91.99,12.06
413,Vila do Maio,40,CV,1559705363,73,15.13,-23.22,73.4,6.93
414,Tessalit,0,ML,1559705364,14,20.2,1.01,89.25,8.43
415,Taixing,91,CN,1559705364,33,32.17,120.02,98.01,11.54
416,Kalemie,0,CD,1559705364,83,-5.95,29.2,60.45,2.8
417,Gazanjyk,53,TM,1559705364,19,39.24,55.52,88.71,8.55
418,Apaseo el Alto,90,MX,1559705364,93,20.46,-100.62,64.99,11.41
419,Luderitz,0,NA,1559705129,72,-26.65,15.16,62.6,8.05
420,Vanavara,0,RU,1559705145,39,60.35,102.28,70.17,2.35
421,Havre-Saint-Pierre,90,CA,1559705234,93,50.23,-63.6,42.8,4.7
422,Conceicao do Araguaia,6,BR,1559705364,66,-8.26,-49.26,76.47,1.7
423,Sinnamary,89,GF,1559705365,81,5.38,-52.96,80.79,11.23
424,Mount Gambier,90,AU,1559705232,71,-37.83,140.78,51.8,10.29
425,Itarema,37,BR,1559705365,88,-2.92,-39.92,76.65,5.82
426,Guataqui,75,CO,1559705365,88,4.52,-74.79,75.2,4.7
427,Pisco,90,PE,1559705365,77,-13.71,-76.2,64.4,9.17
428,Veraval,0,FR,1559705366,87,49.65,0.71,55.0,8.05
429,Nuuk,20,GL,1559705253,56,64.17,-51.74,32.0,11.41
430,Solnechnyy,4,RU,1559705366,41,50.72,136.64,71.07,5.41
431,Adrar,0,DZ,1559705234,14,27.87,-0.29,80.6,13.87
432,Takoradi,100,GH,1559705366,95,4.89,-1.75,74.49,3.74
433,Shebalino,1,RU,1559705366,46,51.29,85.68,62.79,4.83
434,Gangtok,4,IN,1559705366,48,27.33,88.61,67.83,7.0
435,Isiro,100,CD,1559705367,98,2.77,27.62,66.21,1.59
436,Richards Bay,11,ZA,1559705197,58,-28.77,32.06,71.61,21.59
437,Paamiut,81,GL,1559705367,76,61.99,-49.67,39.39,7.07
438,Yuanping,100,CN,1559705367,52,38.72,112.71,64.23,5.82
439,Matoury,0,GF,1559705367,100,4.85,-52.33,75.2,4.61
440,Zhuhai,0,CN,1559705367,13,40.71,112.04,78.8,6.71
441,Ahuimanu,75,US,1559705367,74,21.44,-157.84,87.01,13.87
442,Kununurra,100,AU,1559705368,19,-15.77,128.74,71.6,14.99
443,Karratha,0,AU,1559705168,18,-20.74,116.85,75.03,26.33
444,Thaba Nchu,0,ZA,1559705368,80,-29.2,26.83,39.2,3.36
445,Francistown,0,BW,1559705368,57,-21.17,27.5,53.61,5.41
446,Quatre Cocos,75,MU,1559705368,88,-20.21,57.76,71.6,18.34
447,Tanout,100,NE,1559705368,28,14.97,8.88,94.65,11.45
448,Martapura,20,ID,1559705368,74,-3.41,114.85,86.0,4.7
449,Kattivakkam,20,IN,1559705369,56,13.22,80.32,93.2,6.93
450,Deputatskiy,0,RU,1559705369,34,69.3,139.9,46.59,14.72
451,Ciudad Bolivar,100,VE,1559705369,65,8.12,-63.55,83.31,9.69
452,Vwawa,0,TZ,1559705369,94,-9.11,32.94,52.35,5.48
453,Uwajima,20,JP,1559705369,88,33.22,132.57,71.6,6.93
454,Gull Lake,75,CA,1559705369,28,50.1,-108.48,68.0,12.75
455,Emerald,92,AU,1559705073,31,-23.53,148.16,64.99,13.87
456,Maniitsoq,27,GL,1559705243,48,65.42,-52.9,48.57,6.46
457,Sao Jose da Coroa Grande,12,BR,1559705370,90,-8.9,-35.15,71.79,4.45
458,Bogale,64,MM,1559705370,60,16.29,95.4,89.07,5.84
459,Sabha,30,LY,1559705247,20,27.03,14.43,83.67,15.32
460,Progreso,0,UY,1559705370,66,-34.68,-56.22,52.0,10.29
461,Bosaso,100,SO,1559705370,71,11.28,49.18,89.61,8.08
462,Morondava,23,MG,1559705371,73,-20.3,44.28,75.93,20.13
463,Akureyri,20,IS,1559705371,69,65.68,-18.09,37.4,8.05
464,Chandur,1,IN,1559705371,29,20.82,77.97,99.51,16.31
465,Hirara,75,JP,1559705371,79,24.8,125.28,86.0,11.41
466,Blagoyevo,100,RU,1559705371,93,63.37,47.92,49.11,7.05
467,Ancud,75,CL,1559705240,87,-41.87,-73.83,50.0,16.11
468,Namatanai,46,PG,1559705372,80,-3.66,152.44,82.59,8.03
469,Mersing,84,MY,1559705372,54,2.43,103.84,90.51,3.27
470,Saint-Joseph,0,FR,1559705372,87,43.56,6.97,62.6,4.7
471,Humaita,20,AR,1559705372,93,-24.93,-65.37,50.0,5.82
472,Talnakh,0,RU,1559705372,72,69.49,88.39,41.0,11.18
473,Batsfjord,75,NO,1559705372,86,70.63,29.72,46.4,25.28
474,Canela,0,BR,1559705336,90,-29.36,-50.81,53.01,3.33
475,Dakar,75,SN,1559705373,88,14.69,-17.45,73.4,6.93
476,Mvuma,0,ZW,1559705373,68,-19.28,30.53,46.59,1.86
477,Celestun,100,MX,1559705373,85,20.87,-90.4,82.95,17.11
478,Khalkhal,97,IR,1559705137,57,37.62,48.53,62.25,3.67
479,Soubre,98,CI,1559705373,91,5.79,-6.61,72.33,3.27
480,Vaasa,0,FI,1559705374,76,63.1,21.62,51.8,5.82
481,Colares,20,PT,1559705225,82,38.8,-9.45,60.01,8.05
482,Dunmore East,100,IE,1559705374,82,52.15,-6.99,50.0,5.99
483,Lichtenburg,0,ZA,1559705374,35,-26.15,26.16,50.91,5.26
484,San Carlos de Bariloche,90,AR,1559705374,93,-41.13,-71.31,37.4,6.93
485,Nyurba,0,RU,1559705374,32,63.29,118.35,68.55,4.74
486,Marrakesh,20,MA,1559705375,72,31.63,-7.99,64.4,2.24
487,Calama,0,CL,1559705375,10,-22.46,-68.93,51.01,16.11
488,Vinstra,32,NO,1559705375,81,61.6,9.73,35.61,2.39
489,Gladstone,100,AU,1559705375,32,-23.84,151.26,73.0,6.93
490,Arman,95,RU,1559705376,69,59.7,150.17,56.49,5.46
491,Jalu,0,LY,1559705154,39,29.03,21.55,75.57,11.65
492,Isangel,75,VU,1559705376,74,-19.55,169.27,80.6,5.46
493,Los Llanos de Aridane,40,ES,1559705239,73,28.66,-17.92,69.8,12.75
494,Kavieng,98,PG,1559705253,73,-2.57,150.8,84.39,8.01
495,Bakani,0,IN,1559705376,21,24.29,76.24,100.95,13.47
496,Reconquista,0,AR,1559705376,86,-29.14,-59.64,56.67,10.04
497,Dongsheng,100,CN,1559705376,55,29.72,112.52,90.33,16.33
498,Kakching,75,IN,1559705376,69,24.5,93.98,80.6,4.7
499,Narsaq,28,GL,1559705256,52,60.91,-46.05,46.4,5.82
500,Santa Cruz,1,US,1559705378,87,36.97,-122.03,82.4,6.93
501,Harper,1,US,1559705378,88,30.3,-99.24,73.4,6.93
502,Baruun-Urt,0,MN,1559705254,28,46.68,113.28,60.27,15.03
503,Banda Aceh,98,ID,1559705378,67,5.56,95.32,84.39,1.61
504,Culpeper,1,US,1559705379,82,38.47,-78.0,68.0,6.58
505,Xining,0,CN,1559705379,48,36.62,101.77,56.49,0.92
506,Miri,94,NG,1559705379,59,10.31,9.75,81.87,9.26
507,Plouzane,40,FR,1559705379,93,48.38,-4.62,52.0,4.7
508,Antofagasta,90,CL,1559705112,72,-23.65,-70.4,59.0,5.82
509,Cuncolim,40,IN,1559705379,83,15.17,73.98,84.2,6.93
510,Margate,75,AU,1559705380,54,-43.03,147.26,53.6,17.22
511,Orshanka,0,RU,1559705380,76,56.92,47.89,56.67,10.04
512,San Luis,97,AR,1559705376,40,-33.3,-66.34,64.59,19.28
513,Tuatapere,93,NZ,1559705241,63,-46.13,167.69,48.57,22.28
514,Tingi,46,TZ,1559705381,79,-11.3,35.03,61.89,1.81
515,Crystal,90,US,1559705381,88,45.04,-93.36,66.2,4.7
516,Russell,0,AR,1559705381,81,-33.01,-68.8,50.0,3.36
517,Uyuni,0,BO,1559705382,33,-20.46,-66.82,39.75,3.94
518,Canutama,90,BR,1559705382,81,-6.53,-64.38,75.39,1.97
519,Ilek,0,RU,1559705382,65,51.53,53.38,56.49,10.78
520,Peniche,20,PT,1559705382,72,39.36,-9.38,59.0,8.05
521,Tautira,20,PF,1559705244,69,-17.73,-149.15,82.4,12.75
522,Basco,20,US,1559705382,83,40.33,-91.2,78.01,5.82
523,Manama,0,AE,1559705382,22,25.33,56.02,95.0,4.7
524,Astana,40,KZ,1559705383,67,51.13,71.43,57.2,13.42
525,Baracoa,3,CU,1559705383,80,20.35,-74.5,81.15,6.02
526,Mpanda,31,TZ,1559705383,76,-6.34,31.07,56.49,2.06
527,Poltava,49,UA,1559705383,91,49.59,34.55,64.23,11.39
528,Kirkuk,0,IQ,1559705383,20,35.47,44.4,89.43,10.69
529,Torata,0,PE,1559705384,44,-17.08,-70.84,56.67,1.28
530,Nikolayevka,100,RU,1559705384,77,46.73,38.57,67.29,21.85
531,Venta,0,LT,1559705384,77,56.19,22.69,60.8,5.82
532,Lima,90,PE,1559705267,82,-12.06,-77.04,64.4,4.7
533,Kariba,0,ZW,1559705384,71,-16.53,28.78,62.43,2.53
534,Moree,40,AU,1559705384,45,-29.46,149.84,62.6,6.93
535,Sunrise Manor,1,US,1559705385,13,36.21,-115.07,95.0,4.7
536,Iskateley,79,RU,1559705385,59,67.68,53.15,45.69,12.91
537,Olinda,75,EC,1559705385,83,-2.03,-79.75,77.0,10.29
538,Tarare,0,FR,1559705385,62,45.89,4.44,66.2,2.24
539,Lahaina,67,US,1559705385,100,20.87,-156.68,82.99,11.41
540,Payo,85,ID,1559705385,54,-3.75,103.64,83.31,3.36
541,Yarim,14,YE,1559705386,60,14.3,44.38,70.17,1.77
542,Asifabad,83,IN,1559705386,22,19.38,79.29,102.03,11.68
543,Bandarbeyla,100,SO,1559705386,74,9.49,50.81,79.89,12.82
544,Hauterive,0,FR,1559705386,67,46.09,3.45,62.6,3.36
545,Puerto Ayacucho,75,CO,1559705387,94,5.66,-67.63,77.0,2.35
546,Cap Malheureux,75,MU,1559705387,88,-19.98,57.61,71.6,18.34
547,Gyal,0,HU,1559705387,100,47.38,19.22,64.0,3.36
548,Skjervoy,45,NO,1559705387,91,70.03,20.97,42.45,1.68
549,Fort Portal,100,UG,1559705387,98,0.66,30.28,50.55,2.04
550,Chapais,100,CA,1559705387,93,49.78,-74.86,42.8,5.88
551,Kargala,0,RU,1559705387,65,56.62,83.96,64.0,7.83
552,San Cristobal,75,EC,1559705388,77,-0.39,-78.55,59.0,4.7
553,Masuguru,3,MZ,1559705388,80,-11.38,38.46,66.21,3.89
554,Ilulissat,0,GL,1559705073,69,69.22,-51.1,39.2,2.24
555,Waingapu,86,ID,1559705388,64,-9.65,120.26,81.69,15.28
556,Grindavik,75,IS,1559705389,75,63.84,-22.43,43.0,20.8
557,Caala,19,AO,1559705389,49,-12.85,15.56,47.49,3.2
558,Canavieiras,0,BR,1559705389,81,-15.68,-38.95,74.31,1.19
559,Pokaran,0,IN,1559705389,43,26.93,71.92,95.01,15.1
560,Kpandu,100,GH,1559705389,87,7.0,0.29,76.29,5.46
561,Neiafu,40,TO,1559705389,88,-18.65,-173.98,78.8,5.82
562,Arlit,79,NE,1559705390,28,18.74,7.39,94.65,7.99
563,Lloydminster,75,CA,1559705390,58,53.28,-110.01,55.4,13.87
564,Dolores,67,AR,1559705390,87,-36.31,-57.68,53.79,12.91
565,Miraflores,100,CO,1559705390,99,5.2,-73.14,55.77,2.19
566,Malanje,0,AO,1559705391,44,-9.54,16.35,56.85,5.7
567,Do Gonbadan,0,IR,1559705391,23,30.36,50.8,84.2,2.08
568,Beringovskiy,96,RU,1559705092,55,63.05,179.32,56.49,11.48
569,Evanston,1,US,1559705273,61,42.04,-87.69,77.0,5.82
570,Hobyo,100,SO,1559705161,66,5.35,48.53,80.61,22.82
571,Nautla,100,MX,1559705391,86,20.22,-96.78,80.43,11.43
572,Kangaatsiaq,0,GL,1559705392,68,68.31,-53.46,40.29,10.71
573,Kidal,0,ML,1559705392,10,18.44,1.41,90.33,8.61
574,Balkhash,0,KZ,1559705392,47,46.84,74.98,77.0,15.66
575,Teguldet,0,RU,1559705392,36,57.31,88.17,72.15,1.23
576,Mogadishu,23,SO,1559705240,81,2.04,45.34,76.83,10.07
577,Huarmey,56,PE,1559705392,92,-10.07,-78.15,62.97,14.09
578,Minab,0,IR,1559705392,24,27.15,57.07,93.2,6.93
579,Mantua,0,IT,1559705393,88,45.16,10.79,69.01,3.36
580,Grand Gaube,75,MU,1559705393,88,-20.01,57.66,71.6,18.34
581,Brive-la-Gaillarde,100,FR,1559705393,95,45.16,1.53,54.0,5.01
582,Namibe,0,AO,1559705237,75,-15.19,12.15,70.89,2.93
583,La Baule-Escoublac,0,FR,1559705393,87,47.28,-2.4,57.99,5.82
584,Kargasok,0,RU,1559705393,44,59.06,80.87,66.03,7.85
585,Zdvinsk,48,RU,1559705393,84,54.7,78.67,50.91,16.04
586,Hovd,0,NO,1559705394,100,63.83,10.7,53.01,8.05
587,Ankara,0,TR,1559705394,82,39.92,32.85,63.0,1.12
588,Lewisporte,90,CA,1559705394,93,49.25,-55.06,53.6,16.11
589,Saint-Paul,90,FR,1559705394,62,45.22,1.9,60.01,6.93
590,Hambantota,20,LK,1559705395,79,6.12,81.12,86.0,12.75
591,Gushikawa,75,JP,1559705395,79,26.35,127.87,84.2,12.75
592,Umm Kaddadah,98,SD,1559705183,52,13.6,26.69,82.41,11.92
593,Shuyskoye,0,RU,1559705395,75,59.37,41.03,60.27,8.19
594,Kudahuvadhoo,99,MV,1559705245,74,2.67,72.89,84.03,15.23
595,Severo-Kurilsk,100,RU,1559705395,93,50.68,156.12,41.19,17.09
596,Alamos,100,AR,1559705395,79,-36.9,-62.36,57.03,13.69
597,Uspenskaya,1,RU,1559705395,71,45.78,41.07,68.01,13.33
598,Edinburg,75,US,1559705141,78,26.3,-98.16,82.99,10.29
599,Pucallpa,40,PE,1559705396,94,-8.38,-74.54,73.4,2.24
600,Foumbot,100,CM,1559705396,92,5.51,10.64,64.59,3.33
601,Amberley,84,NZ,1559705396,75,-43.15,172.73,51.01,8.05
602,Bereda,75,ES,1559705396,93,43.27,-7.54,53.01,5.82
603,Ordzhonikidze,100,UA,1559705396,86,44.96,35.36,66.03,3.58
604,Inirida,100,CO,1559705397,96,3.87,-67.92,74.85,0.76
605,Yumen,7,CN,1559705397,12,40.29,97.04,82.05,18.32
606,Nogliki,88,RU,1559705397,75,51.8,143.14,50.37,12.59
607,Evensk,73,RU,1559705397,53,61.92,159.24,58.47,4.41
608,Bellingham,1,US,1559705397,55,48.75,-122.48,64.99,3.36
609,Non Thai,20,TH,1559705398,74,15.2,102.07,89.01,2.73
610,Meulaboh,100,ID,1559705398,71,4.14,96.13,83.31,1.19
611,Sibolga,73,ID,1559704937,70,1.74,98.78,83.67,2.06
612,Porto Walter,0,BR,1559705398,82,-8.27,-72.74,73.41,1.7
613,Wanning,23,AT,1559705398,82,48.64,13.53,62.01,1.12
614,Vostok,39,RU,1559705089,38,46.45,135.83,73.23,5.26
615,Znamensk,0,RU,1559705398,87,54.62,21.23,60.8,4.47
